<?xml version="1.0" encoding="utf-8"?>
<RegionChildren:regionchildren xmlns:xsi="http://www.w3.org/2001/XMLSchema-instance" xmlns:RegionChildren="http://www.zillow.com/static/xsd/RegionChildren.xsd" xsi:schemaLocation="http://www.zillow.com/static/xsd/RegionChildren.xsd https://www.zillowstatic.com/vstatic/b20c067/static/xsd/RegionChildren.xsd"><request><state>il</state><city>chicago</city><childtype>neighborhood</childtype></request><message><text>Request successfully processed</text><code>0</code></message><response><region><id>17426</id><latitude>41.833732</latitude><longitude>-87.731965</longitude></region><subregiontype>neighborhood</subregiontype><list><count>227</count><region><id>269592</id><name>Logan Square</name><zindex currency="USD">248700</zindex><url>http://www.zillow.com/local-info/IL-Chicago/Logan-Square/r_269592/</url><latitude>41.924549</latitude><longitude>-87.707228</longitude></region><region><id>403117</id><name>Little Village</name><zindex currency="USD">122700</zindex><url>http://www.zillow.com/local-info/IL-Chicago/Little-Village/r_403117/</url><latitude>41.838365</latitude><longitude>-87.715089</longitude></region><region><id>403169</id><name>West Rogers Park</name><zindex currency="USD">163300</zindex><url>http://www.zillow.com/local-info/IL-Chicago/West-Rogers-Park/r_403169/</url><latitude>42.002459</latitude><longitude>-87.69657</longitude></region><region><id>269566</id><name>Albany Park</name><zindex currency="USD">230200</zindex><url>http://www.zillow.com/local-info/IL-Chicago/Albany-Park/r_269566/</url><latitude>41.96474</latitude><longitude>-87.713184</longitude></region><region><id>269568</id><name>Archer Heights</name><zindex currency="USD">156300</zindex><url>http://www.zillow.com/local-info/IL-Chicago/Archer-Heights/r_269568/</url><latitude>41.834346</latitude><longitude>-87.72741</longitude></region><region><id>269605</id><name>Rogers Park</name><zindex currency="USD">143800</zindex><url>http://www.zillow.com/local-info/IL-Chicago/Rogers-Park/r_269605/</url><latitude>42.0105</latitude><longitude>-87.669689</longitude></region><region><id>403120</id><name>South Austin</name><zindex currency="USD">143800</zindex><url>http://www.zillow.com/local-info/IL-Chicago/South-Austin/r_403120/</url><latitude>41.886556</latitude><longitude>-87.760032</longitude></region><region><id>269571</id><name>Gresham</name><zindex currency="USD">118700</zindex><url>http://www.zillow.com/local-info/IL-Chicago/Gresham/r_269571/</url><latitude>41.743345</latitude><longitude>-87.657131</longitude></region><region><id>269589</id><name>Lake View</name><zindex currency="USD">338100</zindex><url>http://www.zillow.com/local-info/IL-Chicago/Lake-View/r_269589/</url><latitude>41.94349</latitude><longitude>-87.668226</longitude></region><region><id>138261</id><name>Englewood</name><zindex currency="USD">91300</zindex><url>http://www.zillow.com/local-info/IL-Chicago/Englewood/r_138261/</url><latitude>41.776143</latitude><longitude>-87.644802</longitude></region><region><id>273040</id><name>Brighton Park</name><zindex currency="USD">144600</zindex><url>http://www.zillow.com/local-info/IL-Chicago/Brighton-Park/r_273040/</url><latitude>41.820708</latitude><longitude>-87.699016</longitude></region><region><id>269588</id><name>Jefferson Park</name><zindex currency="USD">258800</zindex><url>http://www.zillow.com/local-info/IL-Chicago/Jefferson-Park/r_269588/</url><latitude>41.97863</latitude><longitude>-87.767681</longitude></region><region><id>275083</id><name>Portage Park</name><zindex currency="USD">244600</zindex><url>http://www.zillow.com/local-info/IL-Chicago/Portage-Park/r_275083/</url><latitude>41.951259</latitude><longitude>-87.766817</longitude></region><region><id>273035</id><name>Bridgeport</name><zindex currency="USD">265000</zindex><url>http://www.zillow.com/local-info/IL-Chicago/Bridgeport/r_273035/</url><latitude>41.83618</latitude><longitude>-87.648296</longitude></region><region><id>269608</id><name>South Shore</name><zindex currency="USD">126500</zindex><url>http://www.zillow.com/local-info/IL-Chicago/South-Shore/r_269608/</url><latitude>41.762936</latitude><longitude>-87.563338</longitude></region><region><id>269582</id><name>Gage Park</name><zindex currency="USD">109000</zindex><url>http://www.zillow.com/local-info/IL-Chicago/Gage-Park/r_269582/</url><latitude>41.795342</latitude><longitude>-87.696696</longitude></region><region><id>28173</id><name>Cragin</name><zindex currency="USD">217600</zindex><url>http://www.zillow.com/local-info/IL-Chicago/Cragin/r_28173/</url><latitude>41.928408</latitude><longitude>-87.756258</longitude></region><region><id>269585</id><name>Humboldt Park</name><zindex currency="USD">176000</zindex><url>http://www.zillow.com/local-info/IL-Chicago/Humboldt-Park/r_269585/</url><latitude>41.902836</latitude><longitude>-87.706614</longitude></region><region><id>403295</id><name>Lake View East</name><zindex currency="USD">223500</zindex><url>http://www.zillow.com/local-info/IL-Chicago/Lake-View-East/r_403295/</url><latitude>41.943076</latitude><longitude>-87.640087</longitude></region><region><id>269600</id><name>North Center</name><zindex currency="USD">401300</zindex><url>http://www.zillow.com/local-info/IL-Chicago/North-Center/r_269600/</url><latitude>41.954114</latitude><longitude>-87.686067</longitude></region><region><id>403146</id><name>Back of the Yards</name><zindex currency="USD">97900</zindex><url>http://www.zillow.com/local-info/IL-Chicago/Back-of-the-Yards/r_403146/</url><latitude>41.808604</latitude><longitude>-87.659936</longitude></region><region><id>269607</id><name>South Loop</name><zindex currency="USD">202200</zindex><url>http://www.zillow.com/local-info/IL-Chicago/South-Loop/r_269607/</url><latitude>41.856991</latitude><longitude>-87.62543</longitude></region><region><id>269614</id><name>West Lawn</name><zindex currency="USD">156000</zindex><url>http://www.zillow.com/local-info/IL-Chicago/West-Lawn/r_269614/</url><latitude>41.7716</latitude><longitude>-87.727276</longitude></region><region><id>403148</id><name>Marquette Park</name><zindex currency="USD">113800</zindex><url>http://www.zillow.com/local-info/IL-Chicago/Marquette-Park/r_403148/</url><latitude>41.768105</latitude><longitude>-87.697919</longitude></region><region><id>403145</id><name>Bronzeville</name><zindex currency="USD">184700</zindex><url>http://www.zillow.com/local-info/IL-Chicago/Bronzeville/r_403145/</url><latitude>41.824904</latitude><longitude>-87.617388</longitude></region><region><id>403109</id><name>Belmont Central</name><zindex currency="USD">214000</zindex><url>http://www.zillow.com/local-info/IL-Chicago/Belmont-Central/r_403109/</url><latitude>41.929257</latitude><longitude>-87.775853</longitude></region><region><id>140913</id><name>West Pullman</name><zindex currency="USD">89100</zindex><url>http://www.zillow.com/local-info/IL-Chicago/West-Pullman/r_140913/</url><latitude>41.671231</latitude><longitude>-87.636875</longitude></region><region><id>269584</id><name>Garfield Ridge</name><zindex currency="USD">192300</zindex><url>http://www.zillow.com/local-info/IL-Chicago/Garfield-Ridge/r_269584/</url><latitude>41.788081</latitude><longitude>-87.771853</longitude></region><region><id>140437</id><name>South Chicago</name><zindex currency="USD">122500</zindex><url>http://www.zillow.com/local-info/IL-Chicago/South-Chicago/r_140437/</url><latitude>41.737386</latitude><longitude>-87.556929</longitude></region><region><id>33597</id><name>Ravenswood</name><zindex currency="USD">283000</zindex><url>http://www.zillow.com/local-info/IL-Chicago/Ravenswood/r_33597/</url><latitude>41.968722</latitude><longitude>-87.685219</longitude></region><region><id>269612</id><name>West Englewood</name><zindex currency="USD">84500</zindex><url>http://www.zillow.com/local-info/IL-Chicago/West-Englewood/r_269612/</url><latitude>41.775721</latitude><longitude>-87.67374</longitude></region><region><id>269615</id><name>West Town</name><zindex currency="USD">305000</zindex><url>http://www.zillow.com/local-info/IL-Chicago/West-Town/r_269615/</url><latitude>41.888978</latitude><longitude>-87.671228</longitude></region><region><id>403257</id><name>Edgewater Beach</name><zindex currency="USD">135000</zindex><url>http://www.zillow.com/local-info/IL-Chicago/Edgewater-Beach/r_403257/</url><latitude>41.987325</latitude><longitude>-87.653814</longitude></region><region><id>403323</id><name>North Austin</name><zindex currency="USD">142100</zindex><url>http://www.zillow.com/local-info/IL-Chicago/North-Austin/r_403323/</url><latitude>41.909213</latitude><longitude>-87.760686</longitude></region><region><id>269577</id><name>East Garfield Park</name><zindex currency="USD">131500</zindex><url>http://www.zillow.com/local-info/IL-Chicago/East-Garfield-Park/r_269577/</url><latitude>41.884698</latitude><longitude>-87.711007</longitude></region><region><id>269597</id><name>Near North</name><zindex currency="USD">246600</zindex><url>http://www.zillow.com/local-info/IL-Chicago/Near-North/r_269597/</url><latitude>41.897675</latitude><longitude>-87.633741</longitude></region><region><id>269609</id><name>Uptown</name><zindex currency="USD">211600</zindex><url>http://www.zillow.com/local-info/IL-Chicago/Uptown/r_269609/</url><latitude>41.967993</latitude><longitude>-87.650122</longitude></region><region><id>273964</id><name>Hermosa</name><zindex currency="USD">174700</zindex><url>http://www.zillow.com/local-info/IL-Chicago/Hermosa/r_273964/</url><latitude>41.917002</latitude><longitude>-87.736263</longitude></region><region><id>138166</id><name>East Side</name><zindex currency="USD">99600</zindex><url>http://www.zillow.com/local-info/IL-Chicago/East-Side/r_138166/</url><latitude>41.703594</latitude><longitude>-87.53465</longitude></region><region><id>275251</id><name>Roseland</name><zindex currency="USD">90600</zindex><url>http://www.zillow.com/local-info/IL-Chicago/Roseland/r_275251/</url><latitude>41.703423</latitude><longitude>-87.622657</longitude></region><region><id>273222</id><name>Chatham</name><zindex currency="USD">131600</zindex><url>http://www.zillow.com/local-info/IL-Chicago/Chatham/r_273222/</url><latitude>41.747363</latitude><longitude>-87.61509</longitude></region><region><id>269611</id><name>West Elsdon</name><zindex currency="USD">151800</zindex><url>http://www.zillow.com/local-info/IL-Chicago/West-Elsdon/r_269611/</url><latitude>41.794817</latitude><longitude>-87.725573</longitude></region><region><id>269586</id><name>Hyde Park</name><zindex currency="USD">208200</zindex><url>http://www.zillow.com/local-info/IL-Chicago/Hyde-Park/r_269586/</url><latitude>41.794088</latitude><longitude>-87.596527</longitude></region><region><id>137603</id><name>Bucktown</name><zindex currency="USD">362500</zindex><url>http://www.zillow.com/local-info/IL-Chicago/Bucktown/r_137603/</url><latitude>41.921271</latitude><longitude>-87.672429</longitude></region><region><id>403330</id><name>Heart of Chicago</name><zindex currency="USD">192700</zindex><url>http://www.zillow.com/local-info/IL-Chicago/Heart-of-Chicago/r_403330/</url><latitude>41.848941</latitude><longitude>-87.675813</longitude></region><region><id>403299</id><name>Streeterville</name><zindex currency="USD">333100</zindex><url>http://www.zillow.com/local-info/IL-Chicago/Streeterville/r_403299/</url><latitude>41.894718</latitude><longitude>-87.613062</longitude></region><region><id>269576</id><name>Chicago Lawn</name><zindex currency="USD">110700</zindex><url>http://www.zillow.com/local-info/IL-Chicago/Chicago-Lawn/r_269576/</url><latitude>41.782586</latitude><longitude>-87.69821</longitude></region><region><id>269573</id><name>Avondale</name><zindex currency="USD">311700</zindex><url>http://www.zillow.com/local-info/IL-Chicago/Avondale/r_269573/</url><latitude>41.93724</latitude><longitude>-87.705233</longitude></region><region><id>269595</id><name>Morgan Park</name><zindex currency="USD">116300</zindex><url>http://www.zillow.com/local-info/IL-Chicago/Morgan-Park/r_269595/</url><latitude>41.687719</latitude><longitude>-87.661738</longitude></region><region><id>269596</id><name>Mount Greenwood</name><zindex currency="USD">193300</zindex><url>http://www.zillow.com/local-info/IL-Chicago/Mount-Greenwood/r_269596/</url><latitude>41.693864</latitude><longitude>-87.716149</longitude></region><region><id>269603</id><name>O'Hare</name><zindex currency="USD">121000</zindex><url>http://www.zillow.com/local-info/IL-Chicago/O'Hare/r_269603/</url><latitude>41.963366</latitude><longitude>-87.842534</longitude></region><region><id>137841</id><name>Clearing</name><zindex currency="USD">171300</zindex><url>http://www.zillow.com/local-info/IL-Chicago/Clearing/r_137841/</url><latitude>41.77927</latitude><longitude>-87.771557</longitude></region><region><id>403356</id><name>Park Manor</name><zindex currency="USD">126000</zindex><url>http://www.zillow.com/local-info/IL-Chicago/Park-Manor/r_403356/</url><latitude>41.769037</latitude><longitude>-87.618357</longitude></region><region><id>269613</id><name>West Garfield Park</name><url>http://www.zillow.com/local-info/IL-Chicago/West-Garfield-Park/r_269613/</url><latitude>41.883515</latitude><longitude>-87.735504</longitude></region><region><id>403141</id><name>University Village - Little Italy</name><zindex currency="USD">213100</zindex><url>http://www.zillow.com/local-info/IL-Chicago/University-Village----Little-Italy/r_403141/</url><latitude>41.868138</latitude><longitude>-87.65558</longitude></region><region><id>403303</id><name>Gold Coast</name><zindex currency="USD">303900</zindex><url>http://www.zillow.com/local-info/IL-Chicago/Gold-Coast/r_403303/</url><latitude>41.906104</latitude><longitude>-87.625526</longitude></region><region><id>403318</id><name>West Humboldt Park</name><zindex currency="USD">134800</zindex><url>http://www.zillow.com/local-info/IL-Chicago/West-Humboldt-Park/r_403318/</url><latitude>41.902354</latitude><longitude>-87.735967</longitude></region><region><id>274579</id><name>Montclare</name><zindex currency="USD">204200</zindex><url>http://www.zillow.com/local-info/IL-Chicago/Montclare/r_274579/</url><latitude>41.927732</latitude><longitude>-87.795964</longitude></region><region><id>269587</id><name>Irving Park</name><zindex currency="USD">321100</zindex><url>http://www.zillow.com/local-info/IL-Chicago/Irving-Park/r_269587/</url><latitude>41.952955</latitude><longitude>-87.71102</longitude></region><region><id>403325</id><name>Galewood</name><zindex currency="USD">212800</zindex><url>http://www.zillow.com/local-info/IL-Chicago/Galewood/r_403325/</url><latitude>41.916147</latitude><longitude>-87.790697</longitude></region><region><id>269570</id><name>Ashburn</name><zindex currency="USD">132700</zindex><url>http://www.zillow.com/local-info/IL-Chicago/Ashburn/r_269570/</url><latitude>41.74822</latitude><longitude>-87.704459</longitude></region><region><id>272951</id><name>Beverly</name><zindex currency="USD">306800</zindex><url>http://www.zillow.com/local-info/IL-Chicago/Beverly/r_272951/</url><latitude>41.72352</latitude><longitude>-87.673739</longitude></region><region><id>403367</id><name>Scottsdale</name><zindex currency="USD">150500</zindex><url>http://www.zillow.com/local-info/IL-Chicago/Scottsdale/r_403367/</url><latitude>41.743922</latitude><longitude>-87.731493</longitude></region><region><id>139408</id><name>McKinley Park</name><zindex currency="USD">182600</zindex><url>http://www.zillow.com/local-info/IL-Chicago/McKinley-Park/r_139408/</url><latitude>41.833761</latitude><longitude>-87.67525</longitude></region><region><id>269599</id><name>Near West Side</name><zindex currency="USD">232800</zindex><url>http://www.zillow.com/local-info/IL-Chicago/Near-West-Side/r_269599/</url><latitude>41.879471</latitude><longitude>-87.672349</longitude></region><region><id>269590</id><name>Lincoln Park</name><zindex currency="USD">439300</zindex><url>http://www.zillow.com/local-info/IL-Chicago/Lincoln-Park/r_269590/</url><latitude>41.918651</latitude><longitude>-87.638261</longitude></region><region><id>403317</id><name>Belmont Gardens</name><zindex currency="USD">210800</zindex><url>http://www.zillow.com/local-info/IL-Chicago/Belmont-Gardens/r_403317/</url><latitude>41.931613</latitude><longitude>-87.734376</longitude></region><region><id>403378</id><name>Brainerd</name><zindex currency="USD">118700</zindex><url>http://www.zillow.com/local-info/IL-Chicago/Brainerd/r_403378/</url><latitude>41.72686</latitude><longitude>-87.650466</longitude></region><region><id>276138</id><name>Woodlawn</name><zindex currency="USD">142600</zindex><url>http://www.zillow.com/local-info/IL-Chicago/Woodlawn/r_276138/</url><latitude>41.779689</latitude><longitude>-87.586096</longitude></region><region><id>269602</id><name>Norwood Park East</name><zindex currency="USD">295100</zindex><url>http://www.zillow.com/local-info/IL-Chicago/Norwood-Park-East/r_269602/</url><latitude>41.991729</latitude><longitude>-87.792198</longitude></region><region><id>403283</id><name>Belmont Heights</name><zindex currency="USD">217700</zindex><url>http://www.zillow.com/local-info/IL-Chicago/Belmont-Heights/r_403283/</url><latitude>41.943431</latitude><longitude>-87.816538</longitude></region><region><id>403288</id><name>Old Irving Park</name><zindex currency="USD">278900</zindex><url>http://www.zillow.com/local-info/IL-Chicago/Old-Irving-Park/r_403288/</url><latitude>41.955155</latitude><longitude>-87.737366</longitude></region><region><id>7930</id><name>Wicker Park</name><zindex currency="USD">432500</zindex><url>http://www.zillow.com/local-info/IL-Chicago/Wicker-Park/r_7930/</url><latitude>41.906824</latitude><longitude>-87.677278</longitude></region><region><id>276349</id><name>Grand Crossing</name><zindex currency="USD">113700</zindex><url>http://www.zillow.com/local-info/IL-Chicago/Grand-Crossing/r_276349/</url><latitude>41.76221</latitude><longitude>-87.595738</longitude></region><region><id>403308</id><name>Park West</name><zindex currency="USD">226600</zindex><url>http://www.zillow.com/local-info/IL-Chicago/Park-West/r_403308/</url><latitude>41.92919</latitude><longitude>-87.639256</longitude></region><region><id>273111</id><name>Calumet Heights</name><zindex currency="USD">131500</zindex><url>http://www.zillow.com/local-info/IL-Chicago/Calumet-Heights/r_273111/</url><latitude>41.729755</latitude><longitude>-87.571982</longitude></region><region><id>33420</id><name>Pilsen</name><zindex currency="USD">218500</zindex><url>http://www.zillow.com/local-info/IL-Chicago/Pilsen/r_33420/</url><latitude>41.852318</latitude><longitude>-87.655448</longitude></region><region><id>269578</id><name>Edgewater</name><zindex currency="USD">242300</zindex><url>http://www.zillow.com/local-info/IL-Chicago/Edgewater/r_269578/</url><latitude>41.990666</latitude><longitude>-87.667523</longitude></region><region><id>403264</id><name>Buena Park</name><zindex currency="USD">182100</zindex><url>http://www.zillow.com/local-info/IL-Chicago/Buena-Park/r_403264/</url><latitude>41.958541</latitude><longitude>-87.648898</longitude></region><region><id>138732</id><name>Hegewisch</name><zindex currency="USD">90900</zindex><url>http://www.zillow.com/local-info/IL-Chicago/Hegewisch/r_138732/</url><latitude>41.655592</latitude><longitude>-87.546758</longitude></region><region><id>403301</id><name>Old Town</name><zindex currency="USD">234300</zindex><url>http://www.zillow.com/local-info/IL-Chicago/Old-Town/r_403301/</url><latitude>41.90749</latitude><longitude>-87.634532</longitude></region><region><id>269579</id><name>Edison Park</name><zindex currency="USD">308600</zindex><url>http://www.zillow.com/local-info/IL-Chicago/Edison-Park/r_269579/</url><latitude>42.007841</latitude><longitude>-87.814305</longitude></region><region><id>403306</id><name>Sheffield Neighbors</name><zindex currency="USD">569100</zindex><url>http://www.zillow.com/local-info/IL-Chicago/Sheffield-Neighbors/r_403306/</url><latitude>41.921239</latitude><longitude>-87.661377</longitude></region><region><id>275927</id><name>Washington Park</name><zindex currency="USD">146500</zindex><url>http://www.zillow.com/local-info/IL-Chicago/Washington-Park/r_275927/</url><latitude>41.791015</latitude><longitude>-87.6159</longitude></region><region><id>403307</id><name>Wrightwood Neighbors</name><zindex currency="USD">444300</zindex><url>http://www.zillow.com/local-info/IL-Chicago/Wrightwood-Neighbors/r_403307/</url><latitude>41.928963</latitude><longitude>-87.65616</longitude></region><region><id>269593</id><name>The Loop</name><zindex currency="USD">203900</zindex><url>http://www.zillow.com/local-info/IL-Chicago/The-Loop/r_269593/</url><latitude>41.882393</latitude><longitude>-87.625861</longitude></region><region><id>403377</id><name>Fernwood</name><zindex currency="USD">88700</zindex><url>http://www.zillow.com/local-info/IL-Chicago/Fernwood/r_403377/</url><latitude>41.707434</latitude><longitude>-87.633177</longitude></region><region><id>137634</id><name>Burnside</name><zindex currency="USD">119100</zindex><url>http://www.zillow.com/local-info/IL-Chicago/Burnside/r_137634/</url><latitude>41.729295</latitude><longitude>-87.600558</longitude></region><region><id>403151</id><name>Wrightwood</name><zindex currency="USD">144900</zindex><url>http://www.zillow.com/local-info/IL-Chicago/Wrightwood/r_403151/</url><latitude>41.746316</latitude><longitude>-87.692415</longitude></region><region><id>403262</id><name>Budlong Woods</name><zindex currency="USD">155800</zindex><url>http://www.zillow.com/local-info/IL-Chicago/Budlong-Woods/r_403262/</url><latitude>41.979403</latitude><longitude>-87.697889</longitude></region><region><id>403379</id><name>Rosemoor</name><zindex currency="USD">116900</zindex><url>http://www.zillow.com/local-info/IL-Chicago/Rosemoor/r_403379/</url><latitude>41.71097</latitude><longitude>-87.611983</longitude></region><region><id>403286</id><name>Mayfair</name><zindex currency="USD">252000</zindex><url>http://www.zillow.com/local-info/IL-Chicago/Mayfair/r_403286/</url><latitude>41.96442</latitude><longitude>-87.737612</longitude></region><region><id>403300</id><name>River North</name><zindex currency="USD">264000</zindex><url>http://www.zillow.com/local-info/IL-Chicago/River-North/r_403300/</url><latitude>41.889284</latitude><longitude>-87.633167</longitude></region><region><id>403271</id><name>North Mayfair</name><zindex currency="USD">287000</zindex><url>http://www.zillow.com/local-info/IL-Chicago/North-Mayfair/r_403271/</url><latitude>41.975253</latitude><longitude>-87.738033</longitude></region><region><id>274178</id><name>Kenwood</name><zindex currency="USD">160600</zindex><url>http://www.zillow.com/local-info/IL-Chicago/Kenwood/r_274178/</url><latitude>41.806817</latitude><longitude>-87.591916</longitude></region><region><id>403310</id><name>Noble Square</name><zindex currency="USD">366700</zindex><url>http://www.zillow.com/local-info/IL-Chicago/Noble-Square/r_403310/</url><latitude>41.90336</latitude><longitude>-87.663025</longitude></region><region><id>403284</id><name>Schorsch Village</name><zindex currency="USD">235300</zindex><url>http://www.zillow.com/local-info/IL-Chicago/Schorsch-Village/r_403284/</url><latitude>41.941744</latitude><longitude>-87.796409</longitude></region><region><id>403376</id><name>Longwood Manor</name><zindex currency="USD">118300</zindex><url>http://www.zillow.com/local-info/IL-Chicago/Longwood-Manor/r_403376/</url><latitude>41.714245</latitude><longitude>-87.643133</longitude></region><region><id>140292</id><name>Sauganash</name><zindex currency="USD">415100</zindex><url>http://www.zillow.com/local-info/IL-Chicago/Sauganash/r_140292/</url><latitude>41.98633</latitude><longitude>-87.738237</longitude></region><region><id>403311</id><name>East Ukrainian Village</name><zindex currency="USD">407500</zindex><url>http://www.zillow.com/local-info/IL-Chicago/East-Ukrainian-Village/r_403311/</url><latitude>41.899625</latitude><longitude>-87.67231</longitude></region><region><id>403314</id><name>Palmer Square</name><zindex currency="USD">251300</zindex><url>http://www.zillow.com/local-info/IL-Chicago/Palmer-Square/r_403314/</url><latitude>41.92109</latitude><longitude>-87.697875</longitude></region><region><id>138129</id><name>Dunning</name><zindex currency="USD">198300</zindex><url>http://www.zillow.com/local-info/IL-Chicago/Dunning/r_138129/</url><latitude>41.95265</latitude><longitude>-87.79667</longitude></region><region><id>403287</id><name>Kilbourn Park</name><zindex currency="USD">232200</zindex><url>http://www.zillow.com/local-info/IL-Chicago/Kilbourn-Park/r_403287/</url><latitude>41.942452</latitude><longitude>-87.737031</longitude></region><region><id>403304</id><name>Old Town Triangle</name><zindex currency="USD">333000</zindex><url>http://www.zillow.com/local-info/IL-Chicago/Old-Town-Triangle/r_403304/</url><latitude>41.914799</latitude><longitude>-87.632214</longitude></region><region><id>403268</id><name>Hollywood Park</name><zindex currency="USD">271700</zindex><url>http://www.zillow.com/local-info/IL-Chicago/Hollywood-Park/r_403268/</url><latitude>41.986485</latitude><longitude>-87.717785</longitude></region><region><id>403353</id><name>West Woodlawn</name><zindex currency="USD">133900</zindex><url>http://www.zillow.com/local-info/IL-Chicago/West-Woodlawn/r_403353/</url><latitude>41.779287</latitude><longitude>-87.610654</longitude></region><region><id>403266</id><name>Margate Park</name><zindex currency="USD">117600</zindex><url>http://www.zillow.com/local-info/IL-Chicago/Margate-Park/r_403266/</url><latitude>41.973349</latitude><longitude>-87.649564</longitude></region><region><id>403265</id><name>Sheridan Park</name><zindex currency="USD">256700</zindex><url>http://www.zillow.com/local-info/IL-Chicago/Sheridan-Park/r_403265/</url><latitude>41.965331</latitude><longitude>-87.663518</longitude></region><region><id>403276</id><name>Norwood Park West</name><zindex currency="USD">291700</zindex><url>http://www.zillow.com/local-info/IL-Chicago/Norwood-Park-West/r_403276/</url><latitude>41.990038</latitude><longitude>-87.815304</longitude></region><region><id>403312</id><name>Ukrainian Village</name><zindex currency="USD">330400</zindex><url>http://www.zillow.com/local-info/IL-Chicago/Ukrainian-Village/r_403312/</url><latitude>41.899466</latitude><longitude>-87.68205</longitude></region><region><id>276477</id><name>North Park</name><zindex currency="USD">293500</zindex><url>http://www.zillow.com/local-info/IL-Chicago/North-Park/r_276477/</url><latitude>41.977341</latitude><longitude>-87.716333</longitude></region><region><id>403321</id><name>Tri-Taylor</name><zindex currency="USD">205700</zindex><url>http://www.zillow.com/local-info/IL-Chicago/Tri--Taylor/r_403321/</url><latitude>41.871218</latitude><longitude>-87.682009</longitude></region><region><id>403360</id><name>East Chatham</name><zindex currency="USD">112100</zindex><url>http://www.zillow.com/local-info/IL-Chicago/East-Chatham/r_403360/</url><latitude>41.743957</latitude><longitude>-87.601143</longitude></region><region><id>403340</id><name>Canaryville</name><zindex currency="USD">193800</zindex><url>http://www.zillow.com/local-info/IL-Chicago/Canaryville/r_403340/</url><latitude>41.814352</latitude><longitude>-87.640985</longitude></region><region><id>403386</id><name>Lake Calumet</name><url>http://www.zillow.com/local-info/IL-Chicago/Lake-Calumet/r_403386/</url><latitude>41.69072</latitude><longitude>-87.590366</longitude></region><region><id>269567</id><name>Andersonville</name><zindex currency="USD">301400</zindex><url>http://www.zillow.com/local-info/IL-Chicago/Andersonville/r_269567/</url><latitude>41.979764</latitude><longitude>-87.669039</longitude></region><region><id>403388</id><name>Calumet River</name><url>http://www.zillow.com/local-info/IL-Chicago/Calumet-River/r_403388/</url><latitude>41.697148</latitude><longitude>-87.544227</longitude></region><region><id>403322</id><name>West Loop Gate</name><zindex currency="USD">234200</zindex><url>http://www.zillow.com/local-info/IL-Chicago/West-Loop-Gate/r_403322/</url><latitude>41.880646</latitude><longitude>-87.641517</longitude></region><region><id>140440</id><name>South Deering</name><zindex currency="USD">89200</zindex><url>http://www.zillow.com/local-info/IL-Chicago/South-Deering/r_140440/</url><latitude>41.709162</latitude><longitude>-87.559857</longitude></region><region><id>403352</id><name>East Hyde Park</name><zindex currency="USD">167400</zindex><url>http://www.zillow.com/local-info/IL-Chicago/East-Hyde-Park/r_403352/</url><latitude>41.794052</latitude><longitude>-87.582102</longitude></region><region><id>269610</id><name>Washington Heights</name><zindex currency="USD">108600</zindex><url>http://www.zillow.com/local-info/IL-Chicago/Washington-Heights/r_269610/</url><latitude>41.707112</latitude><longitude>-87.650721</longitude></region><region><id>403315</id><name>Kelvin Park</name><zindex currency="USD">216200</zindex><url>http://www.zillow.com/local-info/IL-Chicago/Kelvin-Park/r_403315/</url><latitude>41.931487</latitude><longitude>-87.744178</longitude></region><region><id>403278</id><name>Union Ridge</name><zindex currency="USD">258100</zindex><url>http://www.zillow.com/local-info/IL-Chicago/Union-Ridge/r_403278/</url><latitude>41.979114</latitude><longitude>-87.797282</longitude></region><region><id>403255</id><name>Arcadia Terrace</name><zindex currency="USD">262900</zindex><url>http://www.zillow.com/local-info/IL-Chicago/Arcadia-Terrace/r_403255/</url><latitude>41.986693</latitude><longitude>-87.694344</longitude></region><region><id>403342</id><name>New Eastside</name><zindex currency="USD">402200</zindex><url>http://www.zillow.com/local-info/IL-Chicago/New-Eastside/r_403342/</url><latitude>41.886575</latitude><longitude>-87.61705</longitude></region><region><id>403361</id><name>West Chesterfield</name><zindex currency="USD">127200</zindex><url>http://www.zillow.com/local-info/IL-Chicago/West-Chesterfield/r_403361/</url><latitude>41.72906</latitude><longitude>-87.619439</longitude></region><region><id>403357</id><name>West Chatham</name><zindex currency="USD">128000</zindex><url>http://www.zillow.com/local-info/IL-Chicago/West-Chatham/r_403357/</url><latitude>41.743965</latitude><longitude>-87.631154</longitude></region><region><id>403279</id><name>Big Oaks</name><zindex currency="USD">277100</zindex><url>http://www.zillow.com/local-info/IL-Chicago/Big-Oaks/r_403279/</url><latitude>41.971855</latitude><longitude>-87.797465</longitude></region><region><id>51847</id><name>Edgebrook</name><zindex currency="USD">432700</zindex><url>http://www.zillow.com/local-info/IL-Chicago/Edgebrook/r_51847/</url><latitude>41.995344</latitude><longitude>-87.758768</longitude></region><region><id>403375</id><name>East Beverly</name><url>http://www.zillow.com/local-info/IL-Chicago/East-Beverly/r_403375/</url><latitude>41.706618</latitude><longitude>-87.662983</longitude></region><region><id>403281</id><name>Irving Woods</name><zindex currency="USD">220200</zindex><url>http://www.zillow.com/local-info/IL-Chicago/Irving-Woods/r_403281/</url><latitude>41.952028</latitude><longitude>-87.82792</longitude></region><region><id>403327</id><name>Homan Square</name><url>http://www.zillow.com/local-info/IL-Chicago/Homan-Square/r_403327/</url><latitude>41.870195</latitude><longitude>-87.712633</longitude></region><region><id>269591</id><name>Lincoln Square</name><zindex currency="USD">304500</zindex><url>http://www.zillow.com/local-info/IL-Chicago/Lincoln-Square/r_269591/</url><latitude>41.969</latitude><longitude>-87.688949</longitude></region><region><id>403313</id><name>Fulton River District</name><zindex currency="USD">243900</zindex><url>http://www.zillow.com/local-info/IL-Chicago/Fulton-River-District/r_403313/</url><latitude>41.889185</latitude><longitude>-87.645521</longitude></region><region><id>403374</id><name>West Beverly</name><zindex currency="USD">211300</zindex><url>http://www.zillow.com/local-info/IL-Chicago/West-Beverly/r_403374/</url><latitude>41.70635</latitude><longitude>-87.688848</longitude></region><region><id>403305</id><name>Ranch Triangle</name><zindex currency="USD">523200</zindex><url>http://www.zillow.com/local-info/IL-Chicago/Ranch-Triangle/r_403305/</url><latitude>41.914481</latitude><longitude>-87.656148</longitude></region><region><id>403298</id><name>Goose Island</name><zindex currency="USD">291800</zindex><url>http://www.zillow.com/local-info/IL-Chicago/Goose-Island/r_403298/</url><latitude>41.901805</latitude><longitude>-87.651061</longitude></region><region><id>403269</id><name>Pulaski Park</name><zindex currency="USD">335300</zindex><url>http://www.zillow.com/local-info/IL-Chicago/Pulaski-Park/r_403269/</url><latitude>41.993626</latitude><longitude>-87.718964</longitude></region><region><id>403277</id><name>Old Norwood Park</name><zindex currency="USD">368900</zindex><url>http://www.zillow.com/local-info/IL-Chicago/Old-Norwood-Park/r_403277/</url><latitude>41.989642</latitude><longitude>-87.794502</longitude></region><region><id>403263</id><name>Bowmanville</name><zindex currency="USD">410200</zindex><url>http://www.zillow.com/local-info/IL-Chicago/Bowmanville/r_403263/</url><latitude>41.983319</latitude><longitude>-87.681974</longitude></region><region><id>403560</id><name>Douglas Park</name><url>http://www.zillow.com/local-info/IL-Chicago/Douglas-Park/r_403560/</url><latitude>41.860963</latitude><longitude>-87.694489</longitude></region><region><id>403290</id><name>Ravenswood Manor</name><zindex currency="USD">509600</zindex><url>http://www.zillow.com/local-info/IL-Chicago/Ravenswood-Manor/r_403290/</url><latitude>41.964857</latitude><longitude>-87.699268</longitude></region><region><id>403324</id><name>Hanson Park</name><url>http://www.zillow.com/local-info/IL-Chicago/Hanson-Park/r_403324/</url><latitude>41.919747</latitude><longitude>-87.760868</longitude></region><region><id>403168</id><name>Oriole Park</name><zindex currency="USD">266700</zindex><url>http://www.zillow.com/local-info/IL-Chicago/Oriole-Park/r_403168/</url><latitude>41.97743</latitude><longitude>-87.815735</longitude></region><region><id>403351</id><name>North Kenwood</name><zindex currency="USD">208100</zindex><url>http://www.zillow.com/local-info/IL-Chicago/North-Kenwood/r_403351/</url><latitude>41.813223</latitude><longitude>-87.595609</longitude></region><region><id>403275</id><name>Wildwood</name><zindex currency="USD">423800</zindex><url>http://www.zillow.com/local-info/IL-Chicago/Wildwood/r_403275/</url><latitude>42.001548</latitude><longitude>-87.775377</longitude></region><region><id>403259</id><name>Magnolia Glen</name><zindex currency="USD">237300</zindex><url>http://www.zillow.com/local-info/IL-Chicago/Magnolia-Glen/r_403259/</url><latitude>41.987164</latitude><longitude>-87.665074</longitude></region><region><id>274850</id><name>Oakland</name><zindex currency="USD">245500</zindex><url>http://www.zillow.com/local-info/IL-Chicago/Oakland/r_274850/</url><latitude>41.824073</latitude><longitude>-87.601449</longitude></region><region><id>403296</id><name>Lathrop Homes</name><zindex currency="USD">367500</zindex><url>http://www.zillow.com/local-info/IL-Chicago/Lathrop-Homes/r_403296/</url><latitude>41.928732</latitude><longitude>-87.675284</longitude></region><region><id>403294</id><name>Wrigleyville</name><zindex currency="USD">401300</zindex><url>http://www.zillow.com/local-info/IL-Chicago/Wrigleyville/r_403294/</url><latitude>41.947809</latitude><longitude>-87.65553</longitude></region><region><id>403333</id><name>Vittum Park</name><zindex currency="USD">158900</zindex><url>http://www.zillow.com/local-info/IL-Chicago/Vittum-Park/r_403333/</url><latitude>41.802304</latitude><longitude>-87.747891</longitude></region><region><id>137799</id><name>Chinatown</name><zindex currency="USD">209800</zindex><url>http://www.zillow.com/local-info/IL-Chicago/Chinatown/r_137799/</url><latitude>41.850016</latitude><longitude>-87.637169</longitude></region><region><id>403349</id><name>Ida B. Wells - Darrow Homes</name><url>http://www.zillow.com/local-info/IL-Chicago/Ida-B.-Wells----Darrow-Homes/r_403349/</url><latitude>41.827547</latitude><longitude>-87.612129</longitude></region><region><id>403144</id><name>Lake Meadows</name><url>http://www.zillow.com/local-info/IL-Chicago/Lake-Meadows/r_403144/</url><latitude>41.834876</latitude><longitude>-87.611018</longitude></region><region><id>403373</id><name>West Morgan Park</name><zindex currency="USD">213200</zindex><url>http://www.zillow.com/local-info/IL-Chicago/West-Morgan-Park/r_403373/</url><latitude>41.695364</latitude><longitude>-87.688563</longitude></region><region><id>403358</id><name>Marynook</name><url>http://www.zillow.com/local-info/IL-Chicago/Marynook/r_403358/</url><latitude>41.740426</latitude><longitude>-87.593002</longitude></region><region><id>403267</id><name>Graceland West</name><zindex currency="USD">466900</zindex><url>http://www.zillow.com/local-info/IL-Chicago/Graceland-West/r_403267/</url><latitude>41.958024</latitude><longitude>-87.663051</longitude></region><region><id>269572</id><name>Avalon Park</name><zindex currency="USD">130600</zindex><url>http://www.zillow.com/local-info/IL-Chicago/Avalon-Park/r_269572/</url><latitude>41.747711</latitude><longitude>-87.59221</longitude></region><region><id>403282</id><name>Belmont Terrace</name><zindex currency="USD">226800</zindex><url>http://www.zillow.com/local-info/IL-Chicago/Belmont-Terrace/r_403282/</url><latitude>41.941216</latitude><longitude>-87.83136</longitude></region><region><id>403128</id><name>Stony Island Park</name><zindex currency="USD">127900</zindex><url>http://www.zillow.com/local-info/IL-Chicago/Stony-Island-Park/r_403128/</url><latitude>41.743403</latitude><longitude>-87.577194</longitude></region><region><id>137228</id><name>Altgeld Gardens</name><url>http://www.zillow.com/local-info/IL-Chicago/Altgeld-Gardens/r_137228/</url><latitude>41.653897</latitude><longitude>-87.599257</longitude></region><region><id>403309</id><name>West De Paul</name><zindex currency="USD">560600</zindex><url>http://www.zillow.com/local-info/IL-Chicago/West-De-Paul/r_403309/</url><latitude>41.928816</latitude><longitude>-87.66584</longitude></region><region><id>403362</id><name>Princeton Park</name><url>http://www.zillow.com/local-info/IL-Chicago/Princeton-Park/r_403362/</url><latitude>41.725813</latitude><longitude>-87.629087</longitude></region><region><id>403346</id><name>The Gap</name><zindex currency="USD">272200</zindex><url>http://www.zillow.com/local-info/IL-Chicago/The-Gap/r_403346/</url><latitude>41.834712</latitude><longitude>-87.62037</longitude></region><region><id>403359</id><name>The Bush</name><url>http://www.zillow.com/local-info/IL-Chicago/The-Bush/r_403359/</url><latitude>41.744792</latitude><longitude>-87.540484</longitude></region><region><id>403258</id><name>Edgewater Glen</name><zindex currency="USD">489000</zindex><url>http://www.zillow.com/local-info/IL-Chicago/Edgewater-Glen/r_403258/</url><latitude>41.992561</latitude><longitude>-87.665239</longitude></region><region><id>403344</id><name>Dearborn Park</name><zindex currency="USD">321100</zindex><url>http://www.zillow.com/local-info/IL-Chicago/Dearborn-Park/r_403344/</url><latitude>41.866472</latitude><longitude>-87.628962</longitude></region><region><id>403319</id><name>Fifth City</name><url>http://www.zillow.com/local-info/IL-Chicago/Fifth-City/r_403319/</url><latitude>41.87739</latitude><longitude>-87.71082</longitude></region><region><id>403371</id><name>Kennedy Park</name><zindex currency="USD">199800</zindex><url>http://www.zillow.com/local-info/IL-Chicago/Kennedy-Park/r_403371/</url><latitude>41.688117</latitude><longitude>-87.688329</longitude></region><region><id>403390</id><name>Little Calumet River</name><url>http://www.zillow.com/local-info/IL-Chicago/Little-Calumet-River/r_403390/</url><latitude>41.652403</latitude><longitude>-87.576424</longitude></region><region><id>403343</id><name>Printers Row</name><zindex currency="USD">255100</zindex><url>http://www.zillow.com/local-info/IL-Chicago/Printers-Row/r_403343/</url><latitude>41.873965</latitude><longitude>-87.629153</longitude></region><region><id>269581</id><name>Fuller Park</name><url>http://www.zillow.com/local-info/IL-Chicago/Fuller-Park/r_269581/</url><latitude>41.808989</latitude><longitude>-87.633303</longitude></region><region><id>403363</id><name>Pill Hill</name><zindex currency="USD">121000</zindex><url>http://www.zillow.com/local-info/IL-Chicago/Pill-Hill/r_403363/</url><latitude>41.726675</latitude><longitude>-87.575472</longitude></region><region><id>403350</id><name>The Robert Taylor Homes</name><url>http://www.zillow.com/local-info/IL-Chicago/The-Robert-Taylor-Homes/r_403350/</url><latitude>41.809081</latitude><longitude>-87.628807</longitude></region><region><id>403383</id><name>Cottage Grove Heights</name><url>http://www.zillow.com/local-info/IL-Chicago/Cottage-Grove-Heights/r_403383/</url><latitude>41.718482</latitude><longitude>-87.597566</longitude></region><region><id>403293</id><name>South East Ravenswood</name><url>http://www.zillow.com/local-info/IL-Chicago/South-East-Ravenswood/r_403293/</url><latitude>41.957876</latitude><longitude>-87.671466</longitude></region><region><id>403159</id><name>O'Hare International Airport</name><url>http://www.zillow.com/local-info/IL-Chicago/O'Hare-International-Airport/r_403159/</url><latitude>41.979537</latitude><longitude>-87.901074</longitude></region><region><id>403334</id><name>LeClaire Courts</name><zindex currency="USD">132400</zindex><url>http://www.zillow.com/local-info/IL-Chicago/LeClaire-Courts/r_403334/</url><latitude>41.813214</latitude><longitude>-87.74813</longitude></region><region><id>403297</id><name>River West</name><zindex currency="USD">323100</zindex><url>http://www.zillow.com/local-info/IL-Chicago/River-West/r_403297/</url><latitude>41.894402</latitude><longitude>-87.650417</longitude></region><region><id>403260</id><name>Lakewood - Balmoral</name><url>http://www.zillow.com/local-info/IL-Chicago/Lakewood----Balmoral/r_403260/</url><latitude>41.979877</latitude><longitude>-87.661819</longitude></region><region><id>403328</id><name>Illinois Medical District</name><url>http://www.zillow.com/local-info/IL-Chicago/Illinois-Medical-District/r_403328/</url><latitude>41.866719</latitude><longitude>-87.676121</longitude></region><region><id>403302</id><name>Cabrini Green</name><zindex currency="USD">244800</zindex><url>http://www.zillow.com/local-info/IL-Chicago/Cabrini-Green/r_403302/</url><latitude>41.905888</latitude><longitude>-87.6457</longitude></region><region><id>140000</id><name>Prairie Shores</name><url>http://www.zillow.com/local-info/IL-Chicago/Prairie-Shores/r_140000/</url><latitude>41.84334</latitude><longitude>-87.611893</longitude></region><region><id>403256</id><name>Peterson Park</name><url>http://www.zillow.com/local-info/IL-Chicago/Peterson-Park/r_403256/</url><latitude>41.987281</latitude><longitude>-87.704213</longitude></region><region><id>403261</id><name>Ravenswood Gardens</name><url>http://www.zillow.com/local-info/IL-Chicago/Ravenswood-Gardens/r_403261/</url><latitude>41.963488</latitude><longitude>-87.694532</longitude></region><region><id>403370</id><name>Tally's Corner</name><url>http://www.zillow.com/local-info/IL-Chicago/Tally's-Corner/r_403370/</url><latitude>41.709658</latitude><longitude>-87.716</longitude></region><region><id>403331</id><name>East Pilsen</name><url>http://www.zillow.com/local-info/IL-Chicago/East-Pilsen/r_403331/</url><latitude>41.856319</latitude><longitude>-87.642615</longitude></region><region><id>403316</id><name>South Old Irving Park</name><url>http://www.zillow.com/local-info/IL-Chicago/South-Old-Irving-Park/r_403316/</url><latitude>41.943688</latitude><longitude>-87.731297</longitude></region><region><id>403354</id><name>Jackson Park Highlands</name><url>http://www.zillow.com/local-info/IL-Chicago/Jackson-Park-Highlands/r_403354/</url><latitude>41.769751</latitude><longitude>-87.578834</longitude></region><region><id>403285</id><name>Gladstone Park</name><url>http://www.zillow.com/local-info/IL-Chicago/Gladstone-Park/r_403285/</url><latitude>41.980973</latitude><longitude>-87.773154</longitude></region><region><id>140024</id><name>Pullman</name><zindex currency="USD">103700</zindex><url>http://www.zillow.com/local-info/IL-Chicago/Pullman/r_140024/</url><latitude>41.688436</latitude><longitude>-87.605376</longitude></region><region><id>403345</id><name>South Commons</name><url>http://www.zillow.com/local-info/IL-Chicago/South-Commons/r_403345/</url><latitude>41.842015</latitude><longitude>-87.620545</longitude></region><region><id>403336</id><name>Chrysler Village</name><url>http://www.zillow.com/local-info/IL-Chicago/Chrysler-Village/r_403336/</url><latitude>41.776432</latitude><longitude>-87.751809</longitude></region><region><id>403365</id><name>Parkview</name><zindex currency="USD">133000</zindex><url>http://www.zillow.com/local-info/IL-Chicago/Parkview/r_403365/</url><latitude>41.738929</latitude><longitude>-87.716773</longitude></region><region><id>403292</id><name>Roscoe Village</name><zindex currency="USD">419600</zindex><url>http://www.zillow.com/local-info/IL-Chicago/Roscoe-Village/r_403292/</url><latitude>41.943215</latitude><longitude>-87.678477</longitude></region><region><id>403372</id><name>Beverly Woods</name><zindex currency="USD">205000</zindex><url>http://www.zillow.com/local-info/IL-Chicago/Beverly-Woods/r_403372/</url><latitude>41.680882</latitude><longitude>-87.683526</longitude></region><region><id>403338</id><name>Ford City</name><url>http://www.zillow.com/local-info/IL-Chicago/Ford-City/r_403338/</url><latitude>41.760521</latitude><longitude>-87.732057</longitude></region><region><id>403320</id><name>Greektown</name><zindex currency="USD">251600</zindex><url>http://www.zillow.com/local-info/IL-Chicago/Greektown/r_403320/</url><latitude>41.878769</latitude><longitude>-87.646994</longitude></region><region><id>403380</id><name>Golden Gate</name><url>http://www.zillow.com/local-info/IL-Chicago/Golden-Gate/r_403380/</url><latitude>41.654354</latitude><longitude>-87.60853</longitude></region><region><id>269580</id><name>Forest Glen</name><zindex currency="USD">326200</zindex><url>http://www.zillow.com/local-info/IL-Chicago/Forest-Glen/r_269580/</url><latitude>41.979441</latitude><longitude>-87.752106</longitude></region><region><id>403387</id><name>Wolf Lake</name><url>http://www.zillow.com/local-info/IL-Chicago/Wolf-Lake/r_403387/</url><latitude>41.670442</latitude><longitude>-87.532364</longitude></region><region><id>403326</id><name>The Island</name><url>http://www.zillow.com/local-info/IL-Chicago/The-Island/r_403326/</url><latitude>41.868277</latitude><longitude>-87.769192</longitude></region><region><id>403335</id><name>Sleepy Hollow</name><url>http://www.zillow.com/local-info/IL-Chicago/Sleepy-Hollow/r_403335/</url><latitude>41.813959</latitude><longitude>-87.74084</longitude></region><region><id>403366</id><name>Marycrest</name><url>http://www.zillow.com/local-info/IL-Chicago/Marycrest/r_403366/</url><latitude>41.736956</latitude><longitude>-87.707007</longitude></region><region><id>403368</id><name>Beverly View</name><url>http://www.zillow.com/local-info/IL-Chicago/Beverly-View/r_403368/</url><latitude>41.747295</latitude><longitude>-87.680385</longitude></region><region><id>403364</id><name>Winneconna Parkway</name><url>http://www.zillow.com/local-info/IL-Chicago/Winneconna-Parkway/r_403364/</url><latitude>41.752457</latitude><longitude>-87.636957</longitude></region><region><id>403339</id><name>Lithuanian Plaza</name><url>http://www.zillow.com/local-info/IL-Chicago/Lithuanian-Plaza/r_403339/</url><latitude>41.767245</latitude><longitude>-87.688146</longitude></region><region><id>403329</id><name>Heart of Italy</name><url>http://www.zillow.com/local-info/IL-Chicago/Heart-of-Italy/r_403329/</url><latitude>41.84846</latitude><longitude>-87.684306</longitude></region><region><id>403289</id><name>The Villa</name><url>http://www.zillow.com/local-info/IL-Chicago/The-Villa/r_403289/</url><latitude>41.949058</latitude><longitude>-87.722908</longitude></region><region><id>403347</id><name>Stateway Gardens</name><url>http://www.zillow.com/local-info/IL-Chicago/Stateway-Gardens/r_403347/</url><latitude>41.827314</latitude><longitude>-87.628635</longitude></region><region><id>403381</id><name>Eden Green</name><url>http://www.zillow.com/local-info/IL-Chicago/Eden-Green/r_403381/</url><latitude>41.654662</latitude><longitude>-87.615961</longitude></region><region><id>403389</id><name>Powder Horn Lake</name><url>http://www.zillow.com/local-info/IL-Chicago/Powder-Horn-Lake/r_403389/</url><latitude>41.64809</latitude><longitude>-87.532384</longitude></region><region><id>403369</id><name>Mount Greenwood Heights</name><url>http://www.zillow.com/local-info/IL-Chicago/Mount-Greenwood-Heights/r_403369/</url><latitude>41.686338</latitude><longitude>-87.715212</longitude></region><region><id>403355</id><name>Parkway Gardens</name><url>http://www.zillow.com/local-info/IL-Chicago/Parkway-Gardens/r_403355/</url><latitude>41.777471</latitude><longitude>-87.617148</longitude></region><region><id>403332</id><name>Chicago Midway Airport</name><url>http://www.zillow.com/local-info/IL-Chicago/Chicago-Midway-Airport/r_403332/</url><latitude>41.785527</latitude><longitude>-87.749876</longitude></region><region><id>403280</id><name>Schorsch Forest View</name><zindex currency="USD">294800</zindex><url>http://www.zillow.com/local-info/IL-Chicago/Schorsch-Forest-View/r_403280/</url><latitude>41.962911</latitude><longitude>-87.841663</longitude></region><region><id>275192</id><name>Riverdale</name><url>http://www.zillow.com/local-info/IL-Chicago/Riverdale/r_275192/</url><latitude>41.6473</latitude><longitude>-87.616257</longitude></region><region><id>403382</id><name>London Towne</name><url>http://www.zillow.com/local-info/IL-Chicago/London-Towne/r_403382/</url><latitude>41.711582</latitude><longitude>-87.60046</longitude></region><region><id>403348</id><name>Groveland Park</name><url>http://www.zillow.com/local-info/IL-Chicago/Groveland-Park/r_403348/</url><latitude>41.83295</latitude><longitude>-87.607245</longitude></region><region><id>403385</id><name>Harbour Point Estates</name><url>http://www.zillow.com/local-info/IL-Chicago/Harbour-Point-Estates/r_403385/</url><latitude>41.653029</latitude><longitude>-87.529862</longitude></region><region><id>403272</id><name>Sauganash Woods</name><url>http://www.zillow.com/local-info/IL-Chicago/Sauganash-Woods/r_403272/</url><latitude>41.980776</latitude><longitude>-87.736846</longitude></region><region><id>403270</id><name>Brynford Park</name><url>http://www.zillow.com/local-info/IL-Chicago/Brynford-Park/r_403270/</url><latitude>41.983747</latitude><longitude>-87.730194</longitude></region><region><id>403274</id><name>Old Edgebrook</name><url>http://www.zillow.com/local-info/IL-Chicago/Old-Edgebrook/r_403274/</url><latitude>41.994321</latitude><longitude>-87.767974</longitude></region><region><id>403273</id><name>River's Edge</name><url>http://www.zillow.com/local-info/IL-Chicago/River's-Edge/r_403273/</url><latitude>41.977716</latitude><longitude>-87.736863</longitude></region><region><id>403384</id><name>Trumbull Park</name><url>http://www.zillow.com/local-info/IL-Chicago/Trumbull-Park/r_403384/</url><latitude>41.701337</latitude><longitude>-87.564526</longitude></region><region><id>777777</id><name>Jeffery Manor</name><url>http://www.zillow.com/local-info/IL-Chicago/Jeffery-Manor/r_777777/</url><latitude>41.71805</latitude><longitude>-87.5694</longitude></region></list></response></RegionChildren:regionchildren>
<!-- H:007  T:3161ms  S:26891  R:Thu Mar 08 04:42:55 PST 2018  B:5.0.52546-master.ce8f015~delivery_ready.1e5dd3c -->
